{
  "mock_data": [
    {
      "icon": "cater_icon.png",
      "title": "大广场",
      "image": "my%2Fmy_catering_map1.png?token=c65a853c-cd37-45b6-a6d0-f1e21f6e1ae0",
      "time": "9月27-28日  11:00-18:00",
      "address": "含A区、B区餐厅、咖啡厅、便利店",
      "list": [
        {
          "image": "plate_icon.png",
          "name": "湖畔壹号餐厅",
          "tag": [
            "自助餐",
            "中式围餐",
            "商务简餐"
          ],
          "address": "湖畔壹号餐厅",
          "order": 15,
          "longitude": "113.87291909210433",
          "latitude": "22.89263230988736",
          "desc": "位置：大广场 B3-负一楼西侧\n联系电话：000xxxxxxxx"
        },
        {
          "image": "plate_icon.png",
          "name": "港式茶餐厅",
          "tag": [
            "港式茶点",
            "简餐"
          ],
          "order": 3,
          "address": "港式茶餐厅",
          "longitude": "113.86871224180297",
          "latitude": "22.89286332342379",
          "desc": "位置：大广场 A2-2层\n联系电话：000xxxxxxxx"
        },
        {
          "image": "plate_icon.png",
          "name": "南洋餐厅",
          "tag": [
            "东南亚菜系"
          ],
          "order": 1,
          "longitude": "113.86869677096473",
          "latitude": "22.892598693277964",
          "desc": "位置：大广场 A2-1层\n联系电话：000xxxxxxxx",
          "address": "南洋餐厅"
        },
        {
          "image": "plate_icon.png",
          "name": "醒园餐厅",
          "tag": [
            "川菜融合菜",
            "北京烤鸭"
          ],
          "order": 4,
          "longitude": "113.8686129068495",
          "latitude": "22.892560608611817",
          "desc": "位置：大广场 A2-2层\n联系电话：000xxxxxxxx",
          "address": "醒园餐厅"
        },
        {
          "image": "plate_icon.png",
          "name": "居酒屋",
          "tag": [
            "日式料理"
          ],
          "order": 5,
          "longitude": "113.86853766021831",
          "latitude": "22.892933266706162",
          "desc": "位置：大广场 A3-2楼\n联系电话：000xxxxxxxx",
          "address": "居酒屋"
        },
        {
          "image": "plate_icon.png",
          "name": "丝路餐厅",
          "tag": [
            "阿拉伯风格烤肉",
            "地中海菜"
          ],
          "order": 7,
          "longitude": "113.86814244292717",
          "latitude": "22.89299946117615",
          "desc": "位置：大广场 A3-3层\n联系电话：000xxxxxxxx",
          "address": "丝路餐厅"
        },
        {
          "image": "plate_icon.png",
          "name": "松湖高级朴旨餐厅",
          "tag": [
            "西式零点",
            "套餐"
          ],
          "order": 8,
          "longitude": "113.8678362",
          "latitude": "22.8931144",
          "desc": "位置：大广场 A4-3层\n联系电话：000xxxxxxxx",
          "address": "松湖高级朴旨餐厅"
        },
        {
          "image": "plate_icon.png",
          "name": "高级西式餐厅",
          "tag": [
            "西式零点",
            "套餐"
          ],
          "order": 9,
          "longitude": "113.868005",
          "latitude": "22.891782",
          "desc": "位置：大广场 A6-2层\n联系电话：000xxxxxxxx",
          "address": "高级西式餐厅"
        },
        {
          "image": "coffee_icon.png",
          "name": "花园咖啡厅",
          "tag": [
            "咖啡",
            "茶饮",
            "下午茶"
          ],
          "order": 13,
          "longitude": "113.8703299",
          "latitude": "22.89243779",
          "desc": "位置：大广场 B1-1层小花园\n联系电话：000xxxxxxxx",
          "address": "花园咖啡厅"
        },
        {
          "image": "coffee_icon.png",
          "name": "诺贝尔咖啡厅",
          "tag": [
            "咖啡",
            "茶饮",
            "简餐"
          ],
          "order": 14,
          "longitude": "113.8709754",
          "latitude": "22.89218546",
          "desc": "位置：大广场 B2-2层\n联系电话：000xxxxxxxx",
          "address": "诺贝尔咖啡厅"
        },
        {
          "image": "coffee_icon.png",
          "name": "咖啡厅",
          "tag": [
            "咖啡",
            "茶饮",
            "甜点",
            "轻食"
          ],
          "order": 16,
          "longitude": "113.87294026876465",
          "latitude": "22.89201250467191",
          "desc": "位置：大广场 B3-1层\n联系电话：000xxxxxxxx",
          "address": "咖啡厅"
        },
        {
          "image": "coffee_icon.png",
          "name": "烘焙",
          "tag": [
            "茶歇甜品",
            "咖啡"
          ],
          "order": 2,
          "longitude": "113.868408",
          "latitude": "22.892783",
          "desc": "位置：大广场 A2-1层\n联系电话：000xxxxxxxx",
          "address": "烘焙"
        },
        {
          "image": "coffee_icon.png",
          "name": "茶室",
          "tag": [
            "中式茶",
            "咖啡",
            "茶饮"
          ],
          "order": 6,
          "longitude": "113.86853174020972",
          "latitude": "22.89263153753938",
          "desc": "位置：大广场 A3-2层\n联系电话：000xxxxxxxx",
          "address": "茶室"
        },
        {
          "image": "coffee_icon.png",
          "name": "咖啡",
          "tag": [
            "咖啡",
            "茶饮"
          ],
          "order": 11,
          "longitude": "113.86795350799486",
          "latitude": "22.891354228855807",
          "desc": "位置：大广场 A8-3层\n联系电话：000xxxxxxxx",
          "address": "咖啡"
        },
        {
          "image": "coffee_icon.png",
          "name": "咖啡厅",
          "tag": [
            "咖啡",
            "茶饮",
            "简餐"
          ],
          "order": 12,
          "longitude": "113.8667447",
          "latitude": "22.89176515",
          "desc": "位置：大广场 A10-4层\n联系电话：000xxxxxxxx",
          "address": "咖啡厅"
        },
        {
          "image": "store_icon.png",
          "name": "711",
          "tag": [
            "日用百货",
            "杂货"
          ],
          "order": 17,
          "longitude": "113.873165801505",
          "latitude": "22.892261879812242",
          "desc": "位置：大广场 B3-1层B大堂喷泉旁",
          "address": "711"
        },
        {
          "image": "store_icon.png",
          "name": "711",
          "tag": [
            "日用百货",
            "杂货"
          ],
          "order": 10,
          "longitude": "113.868311",
          "latitude": "22.891712",
          "desc": "位置：大广场 A7-2层",
          "address": "711"
        }
      ]
    },
    {
      "icon": "cater_icon.png",
      "title": "小山村",
      "image": "my%2Fmy_catering_map2.png?token=fdbc872d-f8ed-41ea-b594-88f63560cde1",
      "time": "9月27-28日  11:00-18:00",
      "address": "含B-M区 餐厅、咖啡厅、便利店",
      "list": [
        {
          "image": "plate_icon.png",
          "name": "花园餐厅",
          "tag": [
            "特色湘菜",
            "粤菜"
          ],
          "order": 26,
          "longitude": "113.886962",
          "latitude": "22.883107",
          "desc": "位置：小山村 J7负一层\n联系电话：000xxxxxxxx",
          "address": "花园餐厅"
        },
        {
          "image": "plate_icon.png",
          "name": "炸鸡",
          "tag": [
            "炸鸡",
            "汉堡",
            "饮料"
          ],
          "order": 23,
          "longitude": "113.886962",
          "latitude": "2.879975",
          "desc": "位置：小山村 J7负一层\n联系电话：000xxxxxxxx\n营业时间：8:00-10:30；14:30-23:00",
          "address": "炸鸡"
        },
        {
          "image": "plate_icon.png",
          "name": "广州餐厅",
          "tag": [
            "粤菜",
            "自助餐"
          ],
          "order": 13,
          "longitude": "113.883574",
          "latitude": "22.874775",
          "desc": "位置：小山村 E7-1层\n联系电话：000xxxxxxxx",
          "address": "广州餐厅"
        },
        {
          "image": "plate_icon.png",
          "name": "西餐厅",
          "tag": [
            "商务午餐",
            "法式大餐",
            "早餐",
            "下午茶"
          ],
          "order": 29,
          "longitude": "113.886402",
          "latitude": "22.878809",
          "desc": "位置：小山村 L1-1层\n联系电话：000xxxxxxxx",
          "address": "西餐厅"
        },
        {
          "image": "plate_icon.png",
          "name": "Yum Park 悠畔",
          "tag": [
            "湘菜"
          ],
          "order": 2,
          "longitude": "113.872012",
          "latitude": "22.878708",
          "desc": "位置：小山村 B2-1层\n联系电话：000xxxxxxxx",
          "address": "Yum Park 悠畔"
        },
        {
          "image": "plate_icon.png",
          "name": "贝加尔湖餐厅",
          "tag": [
            "特色粤菜"
          ],
          "order": 5,
          "longitude": "113.872836",
          "latitude": "22.877329",
          "desc": "位置：小山村 B8-1层\n联系电话：000xxxxxxxx",
          "address": "贝加尔湖餐厅"
        },
        {
          "image": "plate_icon.png",
          "name": "珊瑚宴",
          "tag": [
            "湘菜",
            "粤菜"
          ],
          "order": 7,
          "longitude": "113.876317",
          "latitude": "22.878077",
          "desc": "位置：小山村 C3-1层\n联系电话：000xxxxxxxx",
          "address": "珊瑚宴"
        },
        {
          "image": "coffee_icon.png",
          "name": "咖啡吧",
          "tag": [
            "咖啡",
            "水果茶",
            "点心"
          ],
          "order": 18,
          "longitude": "113.886519",
          "latitude": "22.874775",
          "desc": "位置：小山村 F区火车站\n联系电话：000xxxxxxxx",
          "address": "咖啡吧"
        },
        {
          "image": "coffee_icon.png",
          "name": "自由咖啡吧",
          "tag": [
            "咖啡",
            "饮品",
            "沙拉",
            "寿司",
            "欧包",
            "西点蛋糕",
            "甘草水果"
          ],
          "order": 17,
          "longitude": "113.887174",
          "latitude": "22.87636",
          "desc": "位置：小山村 F区BC大堂门口\n联系电话：000xxxxxxxx",
          "address": "自由咖啡吧"
        },
        {
          "image": "coffee_icon.png",
          "name": "莫塞尔",
          "tag": [
            "红酒"
          ],
          "order": 15,
          "longitude": "113.88698",
          "latitude": "22.875855",
          "desc": "位置：小山村 F区A餐厅侧\n联系电话：000xxxxxxxx",
          "address": "莫塞尔"
        },
        {
          "image": "coffee_icon.png",
          "name": "咖啡吧",
          "tag": [
            "咖啡",
            "半自助餐"
          ],
          "order": 19,
          "longitude": "113.889314",
          "latitude": "22.877478",
          "desc": "位置：小山村 G3-1层\n联系电话：000xxxxxxxx",
          "address": "咖啡吧"
        },
        {
          "image": "coffee_icon.png",
          "name": "咖啡吧",
          "tag": [
            "各式咖啡",
            "面包蛋糕沙拉"
          ],
          "order": 20,
          "longitude": "113.889894",
          "latitude": "22.878512",
          "desc": "位置：小山村 G9-1层\n联系电话：000xxxxxxxx",
          "address": "咖啡吧"
        },
        {
          "image": "coffee_icon.png",
          "name": "咖啡吧",
          "tag": [
            "思慕雪",
            "希腊手工酸奶",
            "果汁",
            "咖啡",
            "轻代餐等"
          ],
          "order": 21,
          "longitude": "113.890506",
          "latitude": "22.880669",
          "desc": "位置：小山村 H5-1层\n联系电话：000xxxxxxxx",
          "address": "咖啡吧"
        },
        {
          "image": "coffee_icon.png",
          "name": "咖啡吧",
          "tag": [
            "咖啡",
            "茶饮",
            "果汁",
            "面包蛋糕",
            "沙拉",
            "果盘茶歇"
          ],
          "order": 24,
          "longitude": "113.889798",
          "latitude": "22.883024",
          "desc": "位置：小山村 J2-1层\n联系电话：000xxxxxxxx",
          "address": "咖啡吧"
        },
        {
          "image": "coffee_icon.png",
          "name": "花园咖啡吧",
          "tag": [
            "咖啡",
            "茶饮",
            "西点"
          ],
          "order": 27,
          "longitude": "113.886962",
          "latitude": "22.883107",
          "desc": "位置：小山村 J7-1层\n联系电话：000xxxxxxxx",
          "address": "花园咖啡吧"
        },
        {
          "image": "coffee_icon.png",
          "name": "咖啡吧",
          "tag": [
            "咖啡",
            "下午茶",
            "水果切"
          ],
          "order": 28,
          "longitude": "113.884664",
          "latitude": "22.881673",
          "desc": "位置：小山村 K4-1层\n联系电话：000xxxxxxxx",
          "address": "咖啡吧"
        },
        {
          "image": "coffee_icon.png",
          "name": "咖啡吧",
          "tag": [
            "咖啡",
            "水果茶"
          ],
          "order": 30,
          "longitude": "113.886402",
          "latitude": "22.878809",
          "desc": "位置：小山村 L1-1层\n联系电话：000xxxxxxxx",
          "address": "咖啡吧"
        },
        {
          "image": "coffee_icon.png",
          "name": "湖畔咖啡吧",
          "tag": [
            "咖啡",
            "水果茶",
            "点心"
          ],
          "order": 33,
          "longitude": "113.883833",
          "latitude": "22.877443",
          "desc": "位置：小山村 M5-1层\n联系电话：000xxxxxxxx",
          "address": "湖畔咖啡吧"
        },
        {
          "image": "coffee_icon.png",
          "name": "探索者咖啡吧（SeekeyCoffee）",
          "tag": [
            "咖啡",
            "水果茶",
            "点心"
          ],
          "order": 1,
          "longitude": "113.866126",
          "latitude": "22.879462",
          "desc": "位置：小山村 A1-1层\n联系电话：000xxxxxxxx",
          "address": "探索者咖啡吧（SeekeyCoffee）"
        },
        {
          "image": "coffee_icon.png",
          "name": "咖啡吧",
          "tag": [
            "咖啡",
            "水果茶",
            "点心"
          ],
          "order": 4,
          "longitude": "113.871306",
          "latitude": "22.879405",
          "desc": "位置：小山村 B3-1层\n联系电话：000xxxxxxxx",
          "address": "咖啡吧"
        },
        {
          "image": "coffee_icon.png",
          "name": "咖啡吧",
          "tag": [
            "咖啡",
            "水果茶",
            "点心"
          ],
          "order": 8,
          "longitude": "113.876317",
          "latitude": "22.878077",
          "desc": "位置：小山村 C3-1层\n联系电话：000xxxxxxxx",
          "address": "咖啡吧"
        },
        {
          "image": "coffee_icon.png",
          "name": "咖啡吧",
          "tag": [
            "咖啡",
            "水果茶",
            "点心"
          ],
          "order": 9,
          "longitude": "113.875957",
          "latitude": "22.875118",
          "desc": "位置：小山村 D1-1层\n联系电话：000xxxxxxxx",
          "address": "咖啡吧"
        },
        {
          "image": "coffee_icon.png",
          "name": "诺贝尔咖啡吧",
          "tag": [
            "咖啡",
            "水果茶",
            "点心"
          ],
          "order": 10,
          "longitude": "113.876209",
          "latitude": "22.874765",
          "desc": "位置：小山村 D2-1层\n联系电话：000xxxxxxxx",
          "address": "诺贝尔咖啡吧"
        },
        {
          "image": "coffee_icon.png",
          "name": "咖啡吧",
          "tag": [
            "咖啡",
            "茶饮",
            "西点"
          ],
          "order": 14,
          "longitude": "113.883574",
          "latitude": "22.874775",
          "desc": "位置：小山村 E7-1层\n联系电话：000xxxxxxxx",
          "address": "咖啡吧"
        },
        {
          "image": "store_icon.png",
          "name": "711",
          "tag": [
            "日用百货",
            "杂货"
          ],
          "order": 16,
          "longitude": "113.88698",
          "latitude": "22.875855",
          "desc": "位置：小山村 F区A餐厅侧\n联系电话：000xxxxxxxx",
          "address": "711"
        },
        {
          "image": "store_icon.png",
          "name": "全家",
          "tag": [
            "日用百货",
            "杂货"
          ],
          "order": 22,
          "longitude": "113.890506",
          "latitude": "22.880669",
          "desc": "位置：小山村 H5-1层\n联系电话：000xxxxxxxx",
          "address": "全家"
        },
        {
          "image": "store_icon.png",
          "name": "711",
          "tag": [
            "日用百货",
            "杂货"
          ],
          "order": 25,
          "longitude": "113.889798",
          "latitude": "22.883024",
          "desc": "位置：小山村 J2-1层\n联系电话：000xxxxxxxx",
          "address": "711"
        },
        {
          "image": "store_icon.png",
          "name": "711",
          "tag": [
            "日用百货",
            "杂货"
          ],
          "order": 31,
          "longitude": "113.886402",
          "latitude": "22.878809",
          "desc": "位置：小山村 L1-1层\n联系电话：000xxxxxxxx",
          "address": "711"
        },
        {
          "image": "store_icon.png",
          "name": "711",
          "tag": [
            "日用百货",
            "杂货"
          ],
          "order": 32,
          "longitude": "113.883791",
          "latitude": "22.876649",
          "desc": "位置：小山村 M3-1层\n联系电话：000xxxxxxxx",
          "address": "711"
        },
        {
          "image": "store_icon.png",
          "name": "全家",
          "tag": [
            "日用百货",
            "杂货"
          ],
          "order": 3,
          "longitude": "113.872012",
          "latitude": "22.878708",
          "desc": "位置：小山村 B2-1层\n联系电话：000xxxxxxxx",
          "address": "全家"
        },
        {
          "image": "store_icon.png",
          "name": "711",
          "tag": [
            "日用百货",
            "杂货"
          ],
          "order": 6,
          "longitude": "113.875669",
          "latitude": "22.877523",
          "desc": "位置：小山村 C2-1层\n联系电话：000xxxxxxxx",
          "address": "711"
        },
        {
          "image": "store_icon.png",
          "name": "全家",
          "tag": [
            "日用百货",
            "杂货"
          ],
          "order": 11,
          "longitude": "113.876802",
          "latitude": "22.876068",
          "desc": "位置：小山村 D6-1层\n联系电话：000xxxxxxxx",
          "address": "全家"
        },
        {
          "image": "store_icon.png",
          "name": "全家",
          "tag": [
            "日用百货",
            "杂货"
          ],
          "order": 12,
          "longitude": "113.884033",
          "latitude": "22.874511",
          "desc": "位置：小山村 E2-1层\n联系电话：000xxxxxxxx",
          "address": "全家"
        }
      ]
    }
  ]
}